[
  {
    "name": "Abu",
    "country": "Japan",
    "type": "Shield",
    "lat": 34.5,
    "lon": 131.6,
    "elevation": 0
  },
  {
    "name": "Acamarachi",
    "country": "Chile",
    "type": "Stratovolcano",
    "lat": -23.3,
    "lon": -67.62,
    "elevation": 0
  },
  {
    "name": "Acatenango",
    "country": "Guatemala",
    "type": "Stratovolcano",
    "lat": 14.5,
    "lon": -90.88,
    "elevation": 0
  },
  {
    "name": "Acigöl-Nevsehir",
    "country": "Turkey",
    "type": "Caldera",
    "lat": 38.57,
    "lon": 34.52,
    "elevation": 0
  },
  {
    "name": "Adams",
    "country": "USA",
    "type": "Stratovolcano",
    "lat": 46.21,
    "lon": -121.49,
    "elevation": 0
  },
  {
    "name": "Adams Seamount",
    "country": "Pacific Ocean",
    "type": "Submarine",
    "lat": -25.37,
    "lon": -129.27,
    "elevation": 0
  },
  {
    "name": "Adatara",
    "country": "Japan",
    "type": "Stratovolcano",
    "lat": 37.64,
    "lon": 140.29,
    "elevation": 0
  },
  {
    "name": "Adwa",
    "country": "Ethiopia",
    "type": "Stratovolcano",
    "lat": 10.07,
    "lon": 40.84,
    "elevation": 0
  },
  {
    "name": "Afderà",
    "country": "Ethiopia",
    "type": "Stratovolcano",
    "lat": 13.08,
    "lon": 40.85,
    "elevation": 0
  },
  {
    "name": "Agrigan",
    "country": "Mariana Islands",
    "type": "Stratovolcano",
    "lat": 18.77,
    "lon": 145.67,
    "elevation": 0
  },
  {
    "name": "Agua",
    "country": "Guatemala",
    "type": "Stratovolcano",
    "lat": 14.47,
    "lon": -90.74,
    "elevation": 0
  },
  {
    "name": "Agua de Pau",
    "country": "Azores",
    "type": "Stratovolcano",
    "lat": 37.77,
    "lon": -25.47,
    "elevation": 0
  },
  {
    "name": "Aguilera",
    "country": "Chile",
    "type": "Stratovolcano",
    "lat": -50.33,
    "lon": -73.75,
    "elevation": 0
  },
  {
    "name": "Agung",
    "country": "Lesser Sunda Islands",
    "type": "Stratovolcano",
    "lat": -8.34,
    "lon": 115.51,
    "elevation": 0
  },
  {
    "name": "Ahyi",
    "country": "Mariana Islands",
    "type": "Submarine",
    "lat": 20.42,
    "lon": 145.03,
    "elevation": 0
  },
  {
    "name": "Akademia Nauk",
    "country": "Russia",
    "type": "Caldera",
    "lat": 53.98,
    "lon": 159.45,
    "elevation": 0
  },
  {
    "name": "Akagi",
    "country": "Japan",
    "type": "Stratovolcano",
    "lat": 36.56,
    "lon": 139.2,
    "elevation": 0
  },
  {
    "name": "Akan",
    "country": "Japan",
    "type": "Caldera",
    "lat": 43.38,
    "lon": 144.01,
    "elevation": 0
  },
  {
    "name": "Akhtang",
    "country": "Russia",
    "type": "Shield",
    "lat": 55.43,
    "lon": 158.65,
    "elevation": 0
  },
  {
    "name": "Akita Komagatake",
    "country": "Japan",
    "type": "Stratovolcano",
    "lat": 39.76,
    "lon": 140.8,
    "elevation": 0
  },
  {
    "name": "Akita Yakeyama",
    "country": "Japan",
    "type": "Stratovolcano",
    "lat": 39.96,
    "lon": 140.76,
    "elevation": 0
  },
  {
    "name": "Akuseki-jima",
    "country": "Japan",
    "type": "Stratovolcano",
    "lat": 29.46,
    "lon": 129.6,
    "elevation": 0
  },
  {
    "name": "Akutan",
    "country": "USA",
    "type": "Stratovolcano",
    "lat": 54.13,
    "lon": -165.99,
    "elevation": 0
  },
  {
    "name": "Alaid",
    "country": "Russia",
    "type": "Stratovolcano",
    "lat": 50.86,
    "lon": 155.55,
    "elevation": 0
  },
  {
    "name": "Alamagan",
    "country": "Mariana Islands",
    "type": "Stratovolcano",
    "lat": 17.6,
    "lon": 145.83,
    "elevation": 0
  },
  {
    "name": "Alayta",
    "country": "Ethiopia",
    "type": "Shield",
    "lat": 12.88,
    "lon": 40.57,
    "elevation": 0
  },
  {
    "name": "Alban Hills",
    "country": "Italy",
    "type": "Caldera",
    "lat": 41.73,
    "lon": 12.7,
    "elevation": 0
  },
  {
    "name": "Alcedo",
    "country": "Galapagos Islands",
    "type": "Shield",
    "lat": -0.43,
    "lon": -91.12,
    "elevation": 0
  },
  {
    "name": "Ale Bagu",
    "country": "Ethiopia",
    "type": "Stratovolcano",
    "lat": 13.52,
    "lon": 40.63,
    "elevation": 0
  },
  {
    "name": "Alid",
    "country": "Eritrea",
    "type": "Stratovolcano",
    "lat": 14.88,
    "lon": 39.92,
    "elevation": 0
  },
  {
    "name": "Altiplano-Puna Volcanic Complex",
    "country": "Multiple Countries",
    "type": "",
    "lat": -22.44,
    "lon": -67.96,
    "elevation": 0
  },
  {
    "name": "Ambrym",
    "country": "Vanuatu",
    "type": "Shield",
    "lat": -16.25,
    "lon": 168.12,
    "elevation": 0
  },
  {
    "name": "Anatahan",
    "country": "Mariana Islands",
    "type": "Stratovolcano",
    "lat": 16.35,
    "lon": 145.67,
    "elevation": 0
  },
  {
    "name": "Aneityum",
    "country": "Vanuatu",
    "type": "Stratovolcano",
    "lat": -20.2,
    "lon": 169.78,
    "elevation": 0
  },
  {
    "name": "Aniakchak",
    "country": "USA",
    "type": "Caldera",
    "lat": 56.88,
    "lon": -158.17,
    "elevation": 0
  },
  {
    "name": "Antisana",
    "country": "Ecuador",
    "type": "Stratovolcano",
    "lat": -0.48,
    "lon": -78.14,
    "elevation": 0
  },
  {
    "name": "Aoba",
    "country": "Vanuatu",
    "type": "Shield",
    "lat": -15.4,
    "lon": 167.83,
    "elevation": 0
  },
  {
    "name": "Ararat",
    "country": "Turkey",
    "type": "Stratovolcano",
    "lat": 39.7,
    "lon": 44.3,
    "elevation": 0
  },
  {
    "name": "Arenal",
    "country": "Costa Rica",
    "type": "Stratovolcano",
    "lat": 10.46,
    "lon": -84.7,
    "elevation": 0
  },
  {
    "name": "Arintica",
    "country": "Chile",
    "type": "Complex Volcano",
    "lat": -18.73,
    "lon": -69.05,
    "elevation": 0
  },
  {
    "name": "Asacha",
    "country": "Russia",
    "type": "Stratovolcano",
    "lat": 52.36,
    "lon": 157.83,
    "elevation": 0
  },
  {
    "name": "Asama",
    "country": "Japan",
    "type": "Complex Volcano",
    "lat": 36.4,
    "lon": 138.53,
    "elevation": 0
  },
  {
    "name": "Ascensión",
    "country": "South Atlantic Ocean",
    "type": "Stratovolcano",
    "lat": -7.95,
    "lon": -14.37,
    "elevation": 0
  },
  {
    "name": "Askja",
    "country": "Iceland",
    "type": "Stratovolcano",
    "lat": 65.03,
    "lon": -16.75,
    "elevation": 0
  },
  {
    "name": "Aso",
    "country": "Japan",
    "type": "Caldera",
    "lat": 32.88,
    "lon": 131.11,
    "elevation": 0
  },
  {
    "name": "Atitlán",
    "country": "Guatemala",
    "type": "Complex Volcano",
    "lat": 14.58,
    "lon": -91.19,
    "elevation": 0
  },
  {
    "name": "Atka",
    "country": "USA",
    "type": "Caldera",
    "lat": 52.38,
    "lon": -174.15,
    "elevation": 0
  },
  {
    "name": "Atsonupuri",
    "country": "Russia",
    "type": "Stratovolcano",
    "lat": 44.81,
    "lon": 147.14,
    "elevation": 0
  },
  {
    "name": "Augustine",
    "country": "USA",
    "type": "Dome",
    "lat": 59.36,
    "lon": -153.43,
    "elevation": 0
  },
  {
    "name": "Avachinsky",
    "country": "Russia",
    "type": "Stratovolcano",
    "lat": 53.26,
    "lon": 158.83,
    "elevation": 0
  },
  {
    "name": "Awu",
    "country": "Indonesia",
    "type": "Stratovolcano",
    "lat": 3.67,
    "lon": 125.5,
    "elevation": 0
  },
  {
    "name": "Axial Seamount",
    "country": "Pacific Ocean",
    "type": "Submarine",
    "lat": 45.95,
    "lon": -130,
    "elevation": 0
  },
  {
    "name": "Ayelu",
    "country": "Ethiopia",
    "type": "Stratovolcano",
    "lat": 10.08,
    "lon": 40.7,
    "elevation": 0
  },
  {
    "name": "Azufre",
    "country": "Chile",
    "type": "Complex Volcano",
    "lat": -21.79,
    "lon": -68.24,
    "elevation": 0
  },
  {
    "name": "Azuma",
    "country": "Japan",
    "type": "Stratovolcano",
    "lat": 37.73,
    "lon": 140.25,
    "elevation": 0
  },
  {
    "name": "Babuyon Claro",
    "country": "Philippines",
    "type": "Stratovolcano",
    "lat": 19.5,
    "lon": 121.9,
    "elevation": 0
  },
  {
    "name": "Bachelor",
    "country": "USA",
    "type": "Stratovolcano",
    "lat": 43.8,
    "lon": -121.6,
    "elevation": 0
  },
  {
    "name": "Bagana",
    "country": "Papua New Guinea",
    "type": "Cinder Cone",
    "lat": -6.1,
    "lon": 155.2,
    "elevation": 0
  },
  {
    "name": "Baker",
    "country": "USA",
    "type": "Stratovolcano",
    "lat": 48.79,
    "lon": -121.82,
    "elevation": 0
  },
  {
    "name": "Bam",
    "country": "Papua New Guinea",
    "type": "Stratovolcano",
    "lat": -3.6,
    "lon": 144.85,
    "elevation": 0
  },
  {
    "name": "Bamus",
    "country": "Papua New Guinea",
    "type": "Stratovolcano",
    "lat": -5.2,
    "lon": 151.2,
    "elevation": 0
  },
  {
    "name": "Bandai",
    "country": "Japan",
    "type": "Stratovolcano",
    "lat": 37.6,
    "lon": 140.1,
    "elevation": 0
  },
  {
    "name": "Barren Island",
    "country": "India",
    "type": "Pyroclastic Cone",
    "lat": 12.29,
    "lon": 93.88,
    "elevation": 0
  },
  {
    "name": "Barrier",
    "country": "Kenya",
    "type": "Complex Volcano",
    "lat": 2.32,
    "lon": 36.57,
    "elevation": 0
  },
  {
    "name": "Bazman",
    "country": "Iran",
    "type": "Stratovolcano",
    "lat": 28,
    "lon": 60,
    "elevation": 0
  },
  {
    "name": "Beerenberg",
    "country": "Norway",
    "type": "Stratovolcano",
    "lat": 71.1,
    "lon": -8.2,
    "elevation": 0
  },
  {
    "name": "Belknap",
    "country": "USA",
    "type": "Shield",
    "lat": 44.28,
    "lon": -121.83,
    "elevation": 0
  },
  {
    "name": "Bezymianny",
    "country": "Russia",
    "type": "Stratovolcano",
    "lat": 55.98,
    "lon": 160.58,
    "elevation": 0
  },
  {
    "name": "Biliran",
    "country": "Philippines",
    "type": "Complex Volcano",
    "lat": 11.5,
    "lon": 124.5,
    "elevation": 0
  },
  {
    "name": "Bolshoi Semiachik",
    "country": "Russia",
    "type": "Stratovolcano",
    "lat": 54.32,
    "lon": 160.02,
    "elevation": 0
  },
  {
    "name": "Bulusan",
    "country": "Philippines",
    "type": "Stratovolcano",
    "lat": 12.8,
    "lon": 124.1,
    "elevation": 0
  },
  {
    "name": "Butajira",
    "country": "Ethiopia",
    "type": "Maar",
    "lat": 8.05,
    "lon": 38.35,
    "elevation": 0
  },
  {
    "name": "Cameroon (Mount)",
    "country": "Cameroon",
    "type": "Stratovolcano",
    "lat": 4.2,
    "lon": 9.17,
    "elevation": 0
  },
  {
    "name": "Camiguin de Babuyanes",
    "country": "Philippines",
    "type": "Stratovolcano",
    "lat": 18.83,
    "lon": 121.85,
    "elevation": 0
  },
  {
    "name": "Canlaon",
    "country": "Philippines",
    "type": "Stratovolcano",
    "lat": 10.41,
    "lon": 123.13,
    "elevation": 0
  },
  {
    "name": "Capulin",
    "country": "USA",
    "type": "Cinder Cone",
    "lat": 36.45,
    "lon": -104.09,
    "elevation": 0
  },
  {
    "name": "Carrizozo",
    "country": "USA",
    "type": "Volcanic Field",
    "lat": 33.7,
    "lon": -106,
    "elevation": 0
  },
  {
    "name": "Cayambe",
    "country": "Ecuador",
    "type": "Stratovolcano",
    "lat": 0.03,
    "lon": -77.99,
    "elevation": 0
  },
  {
    "name": "Cereme",
    "country": "Indonesia",
    "type": "Stratovolcano",
    "lat": -6.9,
    "lon": 108.41,
    "elevation": 0
  },
  {
    "name": "Chaine des Puys",
    "country": "France",
    "type": "Dome",
    "lat": 45.78,
    "lon": 2.97,
    "elevation": 0
  },
  {
    "name": "Chiginagak",
    "country": "USA",
    "type": "Stratovolcano",
    "lat": 57.13,
    "lon": -156.99,
    "elevation": 0
  },
  {
    "name": "Chikurachki",
    "country": "Russia",
    "type": "Stratovolcano",
    "lat": 50.33,
    "lon": 155.46,
    "elevation": 0
  },
  {
    "name": "Chimborazo",
    "country": "Ecuador",
    "type": "Stratovolcano",
    "lat": -1.46,
    "lon": -78.82,
    "elevation": 0
  },
  {
    "name": "Cleveland",
    "country": "USA",
    "type": "Stratovolcano",
    "lat": 52.83,
    "lon": -169.95,
    "elevation": 0
  },
  {
    "name": "Coatepeque",
    "country": "El Salvador",
    "type": "Caldera",
    "lat": 13.86,
    "lon": -89.54,
    "elevation": 0
  },
  {
    "name": "Colima",
    "country": "Mexico",
    "type": "Stratovolcano",
    "lat": 19.51,
    "lon": -103.62,
    "elevation": 0
  },
  {
    "name": "Concepción",
    "country": "Nicaragua",
    "type": "Stratovolcano",
    "lat": 11.5,
    "lon": -85.6,
    "elevation": 0
  },
  {
    "name": "Copahue",
    "country": "Argentina",
    "type": "Stratovolcano",
    "lat": -37.85,
    "lon": -71.17,
    "elevation": 0
  }
]
